ciudad,idprovincia,codeid,latitude,longitude
Acarigua,18,,9.55342,-69.23754
Acevedo,15,,10.40806,-66.2956
"Acevedo Municipality",15,,10.25,-66.33333
Achaguas,3,,7.77917,-68.22373
"Achaguas Municipality",3,,7.25,-68.41667
"Acosta Municipality",16,,10.1,-63.75
Adicora,11,,11.94065,-69.80794
"Agua Blanca Municipality",18,,9.66146,-69.10752
"Aguaro-Guariquito National Park",12,,8.37087,-66.71291
"Aguasay Municipality",16,,9.42489,-63.73077
Aguirre,7,,10.23428,-68.27192
"Alberto Adriani Municipality",14,,8.60861,-71.76556
"Alberto Arvelo Torrealba Municipality",5,,8.75326,-69.93516
"Alberto Carnevalli Airport",14,,8.58229,-71.16119
"Almirante Padilla Municipality",23,,10.954,-71.64906
"Altagracia de Orituco",12,,9.86005,-66.38139
"Alto Barinas",5,,8.5931,-70.2261
"Alto Orinoco Municipality",1,,2.73456,-64.83032
"Altos de Sucre",19,,10.31272,-63.5969
Amazonas,1,,3.5,-66
Amuay,11,,11.77483,-70.24121
Anaco,2,,9.42958,-64.46428
"Anaco Municipality",2,,9.33333,-64.46667
"Andrés Bello Municipality",21,,9.63217,-70.80759
"Andrés Eloy Blanco Municipality",13,,9.75145,-69.65318
"Andrés Mata Municipality",19,,10.59877,-63.32949
Angasimá-tepuí,6,,5.08333,-62.05
Angostura,6,,7.49247,-63.26941
Antímano,25,,10.4627,-66.98397
"Antolín del Campo Municipality",17,,11.10758,-63.8564
"Antonio José de Sucre Municipality",5,,8.23062,-70.82198
"Antonio Pinto Salinas Municipality",14,,8.39613,-71.6427
"Antonio Rómulo Costa Municipality",20,,8.17003,-72.16541
Anzoátegui,2,,9,-64.33333
"Anzoátegui Municipality",8,,9.58333,-68.86667
Aparamán-tepuí,6,,5.83333,-62.08333
Apartaderos,14,,8.80057,-70.84472
Aprada-tepuí,6,,5.43333,-62.41667
Apure,3,,7.16667,-68.83333
Aragua,4,,10,-67.16667
"Aragua de Barcelona",2,,9.45588,-64.82928
"Aragua Municipality",2,,9.31667,-64.9
Aragüita,2,,9.91252,-65.19197
Araira,15,,10.4522,-66.48439
Araure,18,,9.58144,-69.23851
"Araure Municipality",18,,9.63333,-69.16667
Araya,19,,10.57998,-64.25548
"Araya Peninsula",19,,10.61667,-64
"Archipiélago de Los Monjes",24,,12.41667,-70.91667
"Archipiélago Los Roques",24,,11.83333,-66.75
"Aricagua Municipality",14,,8.22343,-71.13705
"Arismendi Municipality",5,,8.47594,-68.36895
"Arístides Bastidas Municipality",22,,10.24828,-68.84451
"Armando Schwarck Airport",6,,6.57805,-66.8169
Aroa,22,,10.43949,-68.89496
"Arturo Michelena International Airport",7,,10.14961,-67.92937
"Arzobispo Chacón Municipality",14,,8.03333,-71.41667
"Asentamiento Campesino El Barrancón",12,,9.83943,-67.31263
"Asentamiento Campesino Laguna de Piedra",12,,9.31973,-67.54257
"Asentamiento Campesino No. 13 L Ruiz Pineda",4,,9.45,-66.93333
"Atabapo Municipality",1,,4.09441,-66.57715
"Atures Municipality",1,,5.69252,-67.34619
"Autana Municipality",1,,5.01434,-67.24731
"Autónomo Maroa Municipality",1,,2.70164,-66.78589
Auyamitas,11,,11.13333,-69.83333
"Auyán Tepuy Massif",6,,5.91667,-62.53333
"Ayacucho Municipality",20,,8.08333,-72.25
"Bahia De Pertigalete",2,,10.23333,-64.56667
Bailadores,14,,8.21802,-71.12883
"Baralt Municipality",23,,9.83333,-70.91667
Bárbula,7,,10.28847,-68.01415
Barcelona,2,,10.13625,-64.68618
"Barcelona Airport",2,,10.10714,-64.68916
Barinas,5,,8.16667,-69.83333
"Barinas Airport",5,,8.61957,-70.22083
"Barinas Municipality",5,,8.61497,-70.19852
Barinitas,5,,8.76171,-70.41199
Barquisimeto,13,,10.0647,-69.35703
Barrancas,16,,8.6989,-62.19656
"Bartolomé Salom Airport",7,,10.4805,-68.07303
Baruta,15,,10.43424,-66.87558
"Baruta Municipality",15,,10.43346,-66.87541
Bejuma,7,,10.17383,-68.25892
"Bejuma Municipality",7,,10.25,-68.2
Biruaca,3,,7.84483,-67.51679
"Biruaca Municipality",3,,7.84483,-67.51679
"Boca Aroa",11,,10.68229,-68.29829
Boconó,21,,9.25385,-70.25105
Bolívar,6,,6.33333,-63.5
"Bolívar Municipality",4,,10.21302,-67.42365
Borburata,7,,10.44434,-67.96439
"Bruzual Municipality",22,,10.16667,-68.88333
"Buchivacoa Municipality",11,,10.91667,-70.75
"Buroz Municipality",15,,10.36461,-66.13044
Cabimas,23,,10.39907,-71.45206
"Cabimas Municipality",23,,10.36667,-71.4
Cabruta,12,,7.64271,-66.25408
Cabudare,13,,10.02658,-69.26203
"Cacique Aramare Airport",1,,5.61999,-67.6061
"Cacique Manaure Municipality",11,,10.97099,-68.54435
Cagua,4,,10.18634,-67.45935
Caicara,16,,9.81755,-63.61331
"Caicara del Orinoco",6,,7.63501,-66.16815
"Caicara del Orinoco Airport",6,,7.62551,-66.1628
"Caja Seca",23,,9.14151,-71.06741
"Cajigal Municipality",19,,10.56916,-62.82693
Calabozo,12,,8.92416,-67.42929
"Calabozo Airport",12,,8.92466,-67.41709
Calderas,5,,8.46587,-70.74187
"Camaguán Municipality",12,,8.10655,-67.60724
"Camatagua Municipality",4,,9.78762,-66.90619
"Campo Boscán",23,,10.44165,-71.98073
"Campo Elías Municipality",14,,8.45,-71.28333
"Campo La Rosa",23,,10.33333,-71.33333
Canaguá,5,,8.56873,-70.66374
Canaima,9,,9.18281,-60.80346
"Canaima Airport",6,,6.23199,-62.85443
"Candelaria Municipality",21,,9.61818,-70.35713
"Cano Manamo",9,,9.43333,-62.4
Cantarrana,23,,10.53333,-71.43333
Cantaura,2,,9.30571,-64.35841
"Capacho Nuevo",20,,7.82472,-72.3084
Caparo,20,,7.57955,-71.46574
Capaya,15,,10.42879,-66.2734
Caraballeda,26,,10.61216,-66.85192
Carabobo,7,,10.16667,-68.08333
Caracas,25,,10.48801,-66.87919
"Caracas / La Carlota",15,,10.48503,-66.84352
"Caracciolo Parra Olmedo Municipality",14,,8.83518,-71.21214
Carache,21,,9.66667,-70.33333
"Cardenal Quintero Municipality",14,,8.86158,-70.69282
"Cárdenas Municipality",20,,7.83333,-72.11667
Cardón,11,,11.66194,-70.16917
Cariaco,19,,10.49682,-63.55286
Caripe,16,,10.17444,-63.49889
Caripito,16,,10.15,-63.03333
"Carirubana Municipality",11,,11.71667,-70
"Carlos Arvelo Municipality",7,,9.99525,-67.73394
"Carmen de Cura",4,,9.78941,-66.83333
"Caroní Municipality",6,,8.11667,-62.8
Carora,13,,10.17283,-70.081
"Carora Airport",13,,10.1756,-70.06522
Carrizal,15,,10.34985,-66.98632
"Carrizal Municipality",15,,10.3514,-66.9936
Cartanal,15,,10.27085,-66.70748
Carupano,19,,10.7,-63.25
"Carúpano Airport",19,,10.66001,-63.26168
"Casacoima Municipality",9,,8.44011,-62.45968
Casanay,19,,10.5042,-63.41729
"Casigua-El Cubo",23,,8.74602,-72.51889
"Casigua El Cubo Airport",23,,8.75814,-72.5363
"Catatumbo Municipality",23,,9.06085,-72.23413
"Catia La Mar",26,,10.60545,-67.03238
Caucagua,15,,10.2831,-66.37591
Caucagüito,15,,10.48666,-66.73799
Cedeño,6,,7.64922,-66.17591
"Cedeño Municipality",16,,9.83333,-63.75
Cepe,4,,10.5,-67.5
"Cerro Aracamuni",1,,1.50926,-65.63152
"Cerro Autana",1,,4.83333,-67.41667
"Cerro Avispa",1,,1.23716,-65.88964
"Cerro Duida",1,,3.41667,-65.66667
"Cerro El Ávila",26,,10.54275,-66.874
"Cerro El Cobre",20,,7.41884,-72.34243
"Cerro El Volcán",4,,9.9,-66.75389
"Cerro Huachamacari",1,,3.8,-65.76667
"Cerro Jaua",6,,4.8,-64.43333
"Cerro Marahuaca",1,,3.56667,-65.45
"Cerro Petaca",1,,3.66667,-65.5
"Cerro Tenerife",14,,8.09051,-71.55456
"Cerro Tristeza",2,,10.08666,-63.96082
"Cerro Turimiquire",19,,10.11436,-63.87947
Chacao,15,,10.49581,-66.85367
"Chacao Municipality",15,,10.49598,-66.85347
Chaguaramas,12,,9.33754,-66.25282
Charallave,15,,10.24247,-66.85723
Chichiriviche,11,,10.92872,-68.27283
Chiguará,14,,8.48943,-71.53779
Chiquinquirá,23,,10.44333,-71.64722
Chivacoa,22,,10.15951,-68.89453
Choroní,4,,10.48878,-67.61334
Chorrerón,15,,10.35451,-66.04618
Chuao,4,,10.4922,-67.528
Chuspa,26,,10.61633,-66.31286
"Ciudad Bolivar",6,,8.12923,-63.54086
"Ciudad Bolivia",5,,8.35304,-70.57121
"Ciudad Guayana",6,,8.35122,-62.64102
"Ciudad Ojeda",23,,10.20161,-71.3148
"Ciudad Piar",6,,7.45209,-63.31992
Clarines,2,,9.93991,-65.16517
Coche,25,,10.45396,-66.92451
"Coche Island",17,,10.78333,-63.95
Cocorote,22,,10.31954,-68.78298
"Cocorote Municipality",22,,10.31978,-68.78386
Cojedes,8,,9.33333,-68.33333
"Colina Municipality",11,,11.28333,-69.41667
"Colón Municipality",23,,9,-72.08333
Coloncito,20,,8.32611,-72.08742
"Colonia Tovar",4,,10.40602,-67.29199
"Comunidad Indígena Plataneal",6,,7.49167,-61.03111
Concepción,23,,10.4119,-71.68919
"Córdoba Municipality",20,,7.56667,-72.2
Coro,11,,11.4045,-69.67344
"Coro Airport",11,,11.41487,-69.68166
"Cristóbal Rojas Municipality",15,,10.26294,-66.83745
"Cruz de Panamayal",2,,9.93333,-64.91667
"Cruz Paredes Municipality",5,,8.76868,-70.1122
"Cruz Salmerón Acosta Municipality",19,,10.57973,-64.25826
Cúa,15,,10.16245,-66.88248
Cuima,23,,11.66696,-71.74092
Cumana,19,,10.46667,-64.18333
"Cumaná Antonio José de Sucre Airport",19,,10.45033,-64.13047
Cumanacoa,19,,10.25056,-63.91938
Cumbo,15,,10.27361,-66.04778
Cumboto,4,,10.39917,-67.795
Cupira,15,,10.16128,-65.70013
Curarí,11,,11.26254,-70.08079
Curiepe,15,,10.47461,-66.16911
Cuyagua,4,,10.47856,-67.70045
Dabajuro,11,,11.02273,-70.67769
"Delta Amacuro",9,,8.75,-61.33333
"Democracia Municipality",11,,10.83333,-70.16667
"Dependencias Federales",24,,10.92346,-65.30889
"Díaz Municipality",17,,10.98012,-63.9793
"Diego Bautista Urbaneja Municipality",2,,10.19769,-64.69407
"Diego Ibarra Municipality",7,,10.29644,-67.71813
"Diez y Nueve de Abril",4,,10.21553,-67.5112
"Distrito Federal",25,,10.47639,-66.98333
Duaca,13,,10.28554,-69.16244
"East Monks",24,,12.38796,-70.85564
Ejido,14,,8.54665,-71.24087
"El Amparo de Apure",3,,7.10014,-70.7549
"El Café",15,,10.40886,-66.28474
"El Cafetal",15,,10.46541,-66.82951
"El Callao Municipality",6,,7.33326,-61.82874
"El Chorotal",14,,8.66917,-71.39833
"El Clavo",15,,10.22465,-66.17418
"El Dorado",6,,6.71581,-61.63738
"El Dorado Airport",6,,6.716,-61.639
"El Furrial",16,,9.68575,-63.44447
"El Guamache",17,,10.7409,-63.90112
"El Guapo",15,,10.14686,-65.97181
"El Hatillo Municipality",15,,10.42994,-66.8161
"El Limón",4,,10.30589,-67.63212
"El Manteco",2,,9.28333,-64.5
"El Pao",2,,8.78881,-64.62868
"El Paraíso",11,,11.26758,-70.10655
"El Paují",4,,10.21026,-67.22436
"El Picacho",6,,7.635,-64.92167
"El Playón",13,,9.96693,-69.78896
"El Porvenir",6,,6.98167,-66.49167
"El Pozo de Polo",23,,10.18944,-71.24556
"El Puente Quemado",23,,10.53333,-71.3
"El Purgatorio",23,,10.33333,-71.16667
"El Socorro",11,,11.13248,-70.22072
"El Tigre",2,,8.88902,-64.2527
"El Tigre Airport",2,,8.83266,-64.21062
"El Tigre San Tomé Airport",2,,8.94515,-64.15108
"El Vigía",14,,8.6135,-71.65702
Elorza,3,,7.06088,-69.49765
"Embalse de Taguaiguai",4,,10.13301,-67.47245
Escagüey,14,,8.69195,-70.99587
"Escuque Municipality",21,,9.25,-70.75
"Estado La Guaira",26,,10.56667,-66.9
Estánquez,14,,8.46004,-71.53242
"Esteller Municipality",18,,9.25,-69.25
"Ezequiel Zamora Municipality",16,,9.69131,-63.60921
Falcón,11,,11,-69.83333
"Falcón Municipality",11,,11.83333,-70
"Federación Municipality",11,,10.83333,-69.41667
"Fernando de Peñalver Municipality",2,,10.0613,-65.04207
"Francisco de Miranda Municipality",12,,8.92416,-67.42929
"Francisco del Carmen Carvajal Municipality",2,,9.90999,-65.67405
"Francisco Javier Pulgar Municipality",23,,8.9635,-71.6173
"Francisco Linares Alcántara Municipality",4,,10.20598,-67.53275
Fuentidueño,17,,11.01481,-63.92526
Galipan,26,,10.5804,-66.90018
"García de Hevia Municipality",20,,8.33333,-72.25
"García Municipality",17,,10.98283,-63.8831
Gibraltar,23,,9.27132,-71.13466
"Girardot Municipality",8,,8.9,-68.25
"Gómez Municipality",17,,11.08333,-63.91667
"Gran Eneal",23,,11.24191,-71.96072
"Gran Roque Island",24,,11.94965,-66.67635
"Gran Sabana Municipality",6,,4.61667,-61.13333
Guacara,7,,10.22609,-67.877
"Guacara Municipality",7,,10.27211,-67.89167
Guadalupe,11,,11.25113,-70.10071
"Guaicaipuro Municipality",15,,10.25,-67
Guanare,18,,9.04183,-69.74206
"Guanare Airport",18,,9.02776,-69.75447
"Guanarito Municipality",18,,8.5,-69
"Guanipa Municipality",2,,8.87998,-64.16102
"Guanta Municipality",2,,10.23448,-64.59552
"Guaraque Municipality",14,,8.15347,-71.73563
Guarenas,15,,10.47027,-66.61934
Guárico,12,,8.66667,-66.58333
Guariquen,19,,10.26514,-62.92873
Guasdualito,3,,7.24241,-70.73235
"Guasdualito Airport",3,,7.21108,-70.75645
"Guásimos Municipality",20,,7.83607,-72.22758
Guasipati,6,,7.47702,-61.89666
Guatire,15,,10.474,-66.54241
Guayabital,18,,9.31984,-70.02375
Güere,11,,11.05693,-70.34651
Güigüe,7,,10.08344,-67.77799
Güiria,19,,10.57721,-62.29841
"Henri Pittier National Park",4,,10.38382,-67.61845
Higuerote,15,,10.48287,-66.10096
"Higuerote Airport",15,,10.46232,-66.09358
Icabarú,6,,4.33077,-61.7358
"Icabarú Airport",6,,4.3361,-61.74067
"Independencia Municipality",22,,10.33472,-68.75555
"Iribarren Municipality",13,,10.08333,-69.41667
"Isla Aves",24,,15.66871,-63.61801
"Isla Bagres",16,,9.78784,-62.31888
"Isla Blanquilla",24,,11.84926,-64.60171
"Isla Burojo",9,,8.66444,-60.72667
"Isla Buruao",1,,1.6825,-66.97972
"Isla Cidra",9,,9.11982,-60.68758
"Isla Corocoro",1,,3.63333,-66.83333
"Isla Cubagua",17,,10.81627,-64.18202
"Isla de Patos",24,,10.63934,-61.86382
"Isla de Tacarigua",7,,10.16079,-67.72998
"Isla de Toas",23,,10.95651,-71.65469
"Isla Duburojo",9,,9.08943,-60.71619
"Isla Guinamorena",9,,9.65639,-62.36056
"Isla Janacaguaja",9,,9.68957,-62.26134
"Isla Jebucabanoco",9,,9.21129,-60.85331
"Isla Jeburina",9,,8.61178,-61.67799
"Isla La Orquilla",24,,11.82256,-64.43945
"Isla La Sola",24,,11.31084,-63.57053
"Isla La Tortuga",24,,10.93333,-65.33333
"Isla Los Venados",19,,10.3574,-64.40089
"Isla Pato",1,,3.13674,-66.51561
"Isla Pico",24,,11.74359,-64.39338
"Isla Ratón",1,,5.13139,-67.81083
"Isla Sacoroco",9,,8.59278,-61.74722
"Islas Los Frailes",24,,11.21376,-63.74143
"Islas Los Hermanos",24,,11.7753,-64.40489
"Islas Papagayos",9,,8.59583,-60.95361
Isnotú,21,,9.36601,-70.70351
"Istmo de Médanos",11,,11.59111,-69.73556
"Jacinto Lara International Airport",13,,10.04275,-69.35862
"Jacura Municipality",11,,11.07417,-68.85604
Jadacaquiva,11,,11.90169,-70.09425
Jaji,14,,8.57068,-71.34455
Jaralapa,23,,11.61995,-71.88981
"Jesús Enrique Lossada Municipality",23,,10.62062,-71.83651
"Jesús María Semprún Municipality",23,,8.74493,-72.51967
"José Angel Lamas Municipality",4,,10.18,-67.51184
"José Antonio Páez Municipality",22,,10.12111,-69.03639
"José Felipe Márquez Cañizales  Municipality",21,,9.77115,-70.61445
"José Félix Ribas Municipality",12,,9.27681,-65.7712
"José Gregorio Monagas Municipality",2,,7.73874,-64.71876
"José Rafael Revenga Municipality",4,,10.23717,-67.27141
"José Tadeo Monagas International Airport",2,,9.74814,-63.15469
"José Tadeo Monagas Municipality",12,,9.86005,-66.38139
"Jose Terminal",2,,10.1,-64.85
"Josefa Camejo International Airport",11,,11.78078,-70.1515
"Juan Antonio Sotillo Municipality",2,,10.21667,-64.61667
"Juan Germán Roscio Municipality",12,,9.91152,-67.35381
"Juan Griego",17,,11.08172,-63.96549
"Juan José Mora Municipality",7,,10.48889,-68.20028
"Juan Manuel Cajigal Municipality",2,,9.59714,-65.1935
"Juan Pablo Pérez Alfonso Airport",14,,8.6241,-71.67282
"Juan Vicente Gómez International Airport",20,,7.84083,-72.43974
Judibana,11,,11.75908,-70.18418
"Julián Mellado Municipality",12,,9.3863,-67.05818
"Julio César Salas Municipality",14,,9.13745,-70.89203
Jumancal,14,,8.99949,-70.97073
Jumopo,23,,11.50559,-72.01225
"Junín Municipality",20,,7.60463,-72.37467
"Justo Briceño Municipality",14,,9,-71
Kavanayen,6,,5.63333,-61.8
"Kavanayen Airport",6,,5.633,-61.783
"La Acequia",5,,8.37965,-70.67454
"La Asunción",17,,11.03333,-63.86278
"La Azulita",14,,8.71364,-71.44421
"La Bucarita",13,,9.57944,-69.44778
"La Cañada de Urdaneta  Municipality",23,,10.478,-71.99477
"La Ceiba Municipality",21,,9.47139,-71.01419
"La Chinita Internacional",23,,10.55821,-71.72786
"La Columna",14,,8.5413,-71.04472
"La Concepción",23,,10.61919,-71.83814
"La Cuiba",11,,11.07373,-70.02999
"La Culata",14,,8.74778,-71.08528
"La Democracia",15,,10.01667,-66.75
"La Dolorita",15,,10.4883,-66.78608
"La Fría",20,,8.21523,-72.24888
"La Fría Airport",20,,8.23917,-72.27103
"La Grita",20,,8.13316,-71.9839
"La Guaira",26,,10.61667,-66.93333
"La Guaira Airport",25,,10.53333,-67.03333
"La Guardia",17,,10.99742,-64.0181
"La Loma",4,,10.3301,-67.37709
"La Mulera",20,,7.80255,-72.37736
"La Pancha",6,,7.355,-62.27667
"La Piña",6,,7.35722,-63.81
"La Salina",23,,10.36667,-71.46667
"La Sierra",11,,11.19601,-69.52421
"La Trinidad Municipality",22,,10.24933,-68.7695
"La Vela de Coro",11,,11.46077,-69.5657
"La Victoria",4,,10.22677,-67.33122
"La Villa del Rosario",23,,10.3258,-72.31343
"Lago Carapa",2,,8.3,-63.28333
"Lago Culimacare",1,,1.95056,-66.78444
"Lago de Maracaibo",23,,9.81576,-71.55654
"Lago de Valencia",7,,10.17939,-67.73124
"Lago Guanico",19,,10.19391,-62.87123
"Laguna Arepital",3,,6.31524,-67.58492
"Laguna Atatehica",1,,4.81306,-67.73321
"Laguna Capure",9,,9.94544,-62.07781
"Laguna Caridad",1,,3.65,-66.95
"Laguna Ceniza",6,,5.03333,-66.35
"Laguna Cocomonal",1,,5.77923,-67.59644
"Laguna Cojosamica",16,,9.18176,-62.65144
"Laguna de Acequias",17,,10.96068,-64.18465
"Laguna de Bocarito",19,,10.65545,-63.82467
"Laguna de Buena Vista",19,,10.52847,-63.52025
"Laguna de Campoma",19,,10.52192,-63.60667
"Laguna de Coporito",9,,8.85556,-61.95583
"Laguna de Mamo",2,,8.43167,-63.11917
"Laguna de Pío",9,,8.68167,-61.51917
"Laguna del Pájaro",23,,11.38638,-71.98095
"Laguna El Boral",3,,7.78152,-69.45384
"Laguna El Corozo",6,,6.58496,-67.05714
"Laguna El Piso",6,,7.89957,-62.1925
"Laguna el Término",3,,6.89534,-69.61302
"Laguna Guárico",12,,7.91845,-67.36944
"Laguna Jatira",11,,11.04361,-68.41724
"Laguna Jobera",12,,8.13645,-66.96182
"Laguna Juan Manuel de Aguas Muertas",23,,9.45,-72.16667
"Laguna La Barretera",3,,7.35903,-69.39061
"Laguna La Lagunota",3,,6.81194,-68.5909
"Laguna La Ramireña",3,,7.36722,-69.30667
"Laguna La Yuca",3,,6.99846,-71.05235
"Laguna Las Mercedes",3,,6.8,-67.16667
"Laguna Las Pavas",6,,7.535,-62.00389
"Laguna Las Peonias",6,,7.64143,-65.85476
"Laguna Las Tortugas",3,,6.74136,-68.34446
"Laguna Los Bayecos",4,,9.65,-66.76667
"Laguna Los Francos",6,,8.14217,-63.51684
"Laguna Los Patos",12,,8.83627,-67.36808
"Laguna Los Placeres",6,,7.46111,-66.08944
"Laguna Lutana",1,,4.75046,-67.70923
"Laguna Macanacape",1,,2.61667,-66.73333
"Laguna Paciva",1,,2.4,-66.43333
"Laguna Portuguesa",9,,8.67583,-61.77417
"Laguna Pueblo Nuevo",1,,2.4,-65.2
"Laguna Puerto Escondido",3,,7.17369,-70.63196
"Laguna Sinamaica",23,,11.05434,-71.87549
"Laguna Tigre",1,,5.15278,-66.30833
"Laguna Turmero",2,,9.71392,-65.10617
"Laguna Victorino",3,,7.71389,-69.35951
"Laguna Zamurera",1,,4.72572,-67.73594
Lagunillas,14,,8.51667,-71.4
"Lagunillas Municipality",23,,10.19635,-71.30818
Lander,15,,10.18333,-66.7
"Lander Municipality",15,,10.08333,-66.75
Lara,13,,10.16667,-69.83333
"Las Adjuntas",14,,8.66062,-71.49265
"Las Brisas",15,,10.22167,-66.46722
"Las Clavellinas",2,,9.43412,-64.63721
"Las Fermines",17,,11.02095,-63.94602
"Las Flecheras Airport",3,,7.88332,-67.44402
"Las Mercedes Municipality",12,,9.10193,-66.39995
"Las Pavas",6,,7.33333,-63.79667
"Las Peñas",6,,7.925,-62.38611
"Las Piedras",11,,11.7,-70.21667
"Las Piedritas",6,,7.60278,-61.82667
"Las Piñas",6,,7.41722,-62.275
"Las Tasajeras",23,,10.17833,-71.2675
"Las Tejerías",4,,10.25416,-67.17333
"Las Tetas de María Guevara",17,,10.95722,-64.12056
"Las Yayas",23,,9.81667,-72.11667
Lecherías,2,,10.19167,-64.69207
"Leonardo Infante Municipality",12,,9.21554,-66.00734
"Libertad  Municipality",20,,7.82716,-72.32197
"Libertador Municipality",25,,10.49017,-66.87472
"Lima Blanco Municipality",8,,9.82602,-68.43899
Lobatera,20,,7.93005,-72.24679
Loma,16,,10.11667,-63.7
"Loma del Medio",21,,9.02833,-70.49562
"Los Bajos de Punceres",16,,9.93333,-63.26667
"Los Dos Caminos",15,,10.49389,-66.82863
"Los Guayos Municipality",7,,10.18341,-67.93636
"Los Manglecitos",17,,10.80019,-64.20434
"Los Nevados",14,,8.46073,-71.07594
"Los Puertos de Altagracia",23,,10.71492,-71.52168
"Los Rastrojos",13,,10.02588,-69.24166
"Los Roques",24,,11.94836,-66.67835
"Los Roques Airport",24,,11.9447,-66.67285
"Los Salias Municipality",15,,10.38853,-66.95179
"Los Taques Municipality",11,,11.82308,-70.25353
"Los Teques",15,,10.34447,-67.04325
"Los Testigos",24,,11.36608,-63.11029
"Macanao Peninsula Municipality",17,,11.01667,-64.28333
Machiques,23,,10.06077,-72.55212
Machurucuto,15,,10.20307,-65.65363
Macos,1,,4.75,-66.25
Macuro,19,,10.65926,-61.9459
Magdaleno,4,,10.09764,-67.61447
Maiquetía,26,,10.5945,-66.95624
Mamporal,15,,10.36556,-66.13391
"Manapiare Municipality",1,,5.07453,-65.54443
"Mangas Coveras",12,,7.78167,-67.07481
"Manuel Carlos Piar Guayana Airport",6,,8.28853,-62.76036
"Manuel Ezequiel Bruzual Municipality",2,,9.93991,-65.16517
"Manuel Monge Municipality",22,,10.59732,-68.67245
"Mara Municipality",23,,10.91667,-72.08333
Maracaibo,23,,10.63333,-71.6
"Maracaibo Municipality",23,,10.74147,-71.74232
Maracay,4,,10.23535,-67.59113
"Marcano Municipality",17,,11.08307,-63.96412
Marcolinero,3,,7.49417,-68.34889
Margarita,17,,10.94968,-64.09228
Mariara,7,,10.29532,-67.7177
"Mariño Municipality",19,,10.61667,-62.53333
"Mario Briceño Iragorry Municipality",4,,10.30314,-67.6172
"Mariscal Sucre Airport",4,,10.24998,-67.64942
Maturín,16,,9.74569,-63.18323
"Maturín Municipality",16,,9.4,-63.03333
"Mauroa Municipality",11,,10.83333,-71
Mavaca,1,,2.49582,-65.24487
"Mayor Buenaventura Vivas Airport",20,,7.56511,-72.03512
"Mejía Municipality",19,,10.37777,-63.77381
"Mene de Mauroa",11,,10.68091,-71.03609
"Mene Grande",23,,9.84639,-70.92655
Mérida,14,,8.5,-71.16667
"Mesa Bolívar",14,,8.4748,-71.59678
Michelena,20,,7.95642,-72.24235
Miranda,7,,10.15077,-68.39325
"Miranda Municipality",7,,10.14987,-68.39418
"Mist Peak",1,,0.80459,-66.00616
"Mochima National Park",19,,10.26139,-64.48
Monagas,16,,9.33333,-63
"Monseñor José Vicente de Unda Municipality",18,,9.43365,-69.94754
Montalbán,7,,10.21313,-68.32669
"Montalbán Municipality",7,,10.16667,-68.35
"Monte Carmelo Municipality",21,,9.18583,-70.81561
"Montes Municipality",19,,10.25,-63.91667
Morocopo,4,,10.20656,-67.20502
Morocure,6,,8.25042,-62.72815
Morón,7,,10.48715,-68.20078
"Morro de Barcelona",2,,10.21425,-64.70799
"Motatán Municipality",21,,9.39002,-70.59119
Motilones,23,,9.58333,-72.66667
"Mountain of the Mist",1,,0.88639,-65.98944
Mucuchachi,14,,8.14782,-71.3409
Mucuchíes,14,,8.74921,-70.91978
Mucunutan,14,,8.61057,-71.08777
Mucuruba,14,,8.70734,-70.99156
"Mun. Costa de Oro",4,,10.46127,-67.76872
"Municipio Andrés Bello",20,,7.85628,-72.18249
"Municipio Andrés Eloy Blanco",19,,10.55,-63.41667
"Municipio Antonio Díaz",9,,8.5,-60.83333
"Municipio Arismendi",19,,10.7,-62.58333
"Municipio Benítez",19,,10.27,-62.875
"Municipio Bermúdez",19,,10.66667,-63.25
"Municipio Boconó",21,,9.25,-70.25
"Municipio Brión",15,,10.41667,-66.16667
"Municipio Chaguaramas",12,,9.33855,-66.25255
"Municipio Crespo",13,,10.3,-69.16667
"Municipio Dabajuro",11,,11.02273,-70.67769
"Municipio El Socorro",12,,8.9936,-65.74562
"Municipio Guajira",23,,11.33333,-72
"Municipio Guanare",18,,9.00459,-69.64964
"Municipio Heres",6,,7.6534,-63.93914
"Municipio Jáuregui",20,,8.1,-72
"Municipio Jiménez",13,,9.8,-69.58333
"Municipio José Félix Ribas",4,,10.21844,-67.33017
"Municipio José María Vargas",20,,8.03514,-72.05675
"Municipio Juan Vicente Campo Elías",21,,9.39347,-70.06035
"Municipio Libertador",14,,8.45387,-71.01787
"Municipio Lobatera",20,,7.91667,-72.26667
"Municipio Machiques de Perijá",23,,10.06444,-72.545
"Municipio Maneiro",17,,11,-63.83333
"Municipio Michelena",20,,7.98333,-72.18333
"Municipio Miranda",14,,9,-70.75
"Municipio Monseñor Iturriza",11,,10.9333,-68.27716
"Municipio Morán",13,,9.66667,-69.83333
"Municipio Paez",18,,9.5,-69.05
"Municipio Palavecino",13,,10.01035,-69.24139
"Municipio Pampanito",21,,9.41147,-70.49592
"Municipio Pedro Gual",15,,10.16103,-65.7009
"Municipio Pedro María Ureña",20,,7.93333,-72.4
"Municipio Ribero",19,,10.43887,-63.54764
"Municipio Rivas Dávila",14,,8.19439,-71.83549
"Municipio San Carlos",8,,9.58333,-68.58333
"Municipio San Cristóbal",20,,7.71667,-72.16667
"Municipio San Fernando",3,,7.58333,-67.16667
"Municipio Santos Marquina",14,,8.6311,-71.07843
"Municipio Silva",11,,10.75709,-68.35007
"Municipio Simón Planas",13,,9.78129,-69.1633
"Municipio Sucre",19,,10.41667,-64.08333
"Municipio Tocópero",11,,11.49897,-69.25892
"Municipio Uracoa",16,,8.9996,-62.35164
"Municipio Urdaneta",21,,9.08333,-70.58333
"Municipio Uribante",20,,7.66667,-71.91667
"Muñoz Municipality",3,,7.58333,-69.41667
Murisipán-tepuí,6,,5.85,-62
"Naguanagua Municipality",7,,10.25648,-68.01893
Nirgua,22,,10.15039,-68.56478
"Nirgua Municipality",22,,10.08333,-68.66667
"North Monks",24,,12.48837,-70.91864
"Nueva Esparta",17,,11,-64
"Obispo Ramos de Lora Municipality",14,,8.81924,-71.46564
"Obispos Municipality",5,,8.60614,-70.10445
Ocumare,15,,10.1182,-66.77513
"Orchilla Island",24,,11.79584,-66.13812
"Oro Negro Airport",23,,10.33075,-71.31925
"Ortiz Municipality",12,,9.62168,-67.29047
Ospino,18,,9.29572,-69.45434
"Ospino Municipality",18,,9.33333,-69.41667
"P.N Morrocoy",11,,10.88397,-68.29823
"Padre Noguera Municipality",14,,7.71412,-71.46466
"Padre Pedro Chien Municipality",6,,8.02455,-61.88187
"Páez Municipality",3,,7.25,-71
"Palmasola Municipality",11,,10.61243,-68.5339
Palmira,20,,7.8375,-72.22794
"Palo Negro",4,,10.17389,-67.54194
Pampán,21,,9.44519,-70.47556
"Pampán Municipality",21,,9.44475,-70.47759
"Pampanito Municipality",20,,7.52877,-71.96011
Pampatar,17,,11.00085,-63.79298
"Panamericano Municipality",20,,8.41667,-72
Panaquire,15,,10.21816,-66.23952
"Pao de San Juan Bautista Municipality",8,,9.63752,-68.12884
Paparo,15,,10.38348,-65.98436
"Papelón Municipality",18,,8.94109,-69.46021
Paracotos,15,,10.26629,-66.95943
Paraguana,11,,11.91667,-70
Parapara,12,,9.70304,-67.29151
"Parcelamiento Agrícola San Bonifacio",19,,10.34403,-63.30104
"Paria Peninsula",19,,10.66667,-62.5
Pariri,23,,9.91667,-72.83333
"Parque Agrinco",15,,10.36425,-66.29698
"Parque Ezequiel Zamora",25,,10.50482,-66.92188
"Parque Nacional del Este",15,,10.49246,-66.83946
"Parque Nacional El Tama",20,,7.54079,-72.189
"Parque Nacional Guatopo",15,,10.07876,-66.41043
"Parque Nacional Mariusa",9,,9.39306,-61.44917
"Parque Nacional Serranía La Neblina",1,,1.18342,-65.85803
"Parque Zoológico Caricuao",25,,10.43018,-66.96827
Paviche,6,,7.31111,-62.73111
"Paz Castillo Municipality",15,,10.33333,-66.66667
"Pedernales Airport",9,,9.97924,-62.2286
"Pedernales Municipality",9,,9.96982,-62.25408
"Pedraza Municipality",5,,8.35325,-70.56982
"Pedro Camejo Municipality",3,,6.5,-67.91667
"Pedro María Freites Municipality",2,,9.30571,-64.35841
"Pedro Zaraza Municipality",12,,9.35029,-65.32452
Pedrogonzalez,17,,11.1,-63.95
"Peña Muncipality",22,,10.08,-69.12611
"Perai Tepuy Airport",6,,4.57,-61.519
Petare,15,,10.47679,-66.80786
"Petit Municipality",11,,11.05,-69.41667
"Piar Municipality",6,,6.60365,-62.72736
"Pico Bolívar",14,,8.54066,-71.04635
"Pico Bonpland",14,,8.52993,-71.03193
"Pico El Águila",14,,8.85,-70.81667
"Pico El León",14,,8.53333,-71.06667
"Pico El Toro",14,,8.3518,-71.24741
"Pico Espejo",14,,8.533,-71.05
"Pico Humboldt",14,,8.55,-70.98333
"Pico La Concha",14,,8.55482,-71.02704
"Pico Los Nevados",14,,8.86467,-70.92328
"Pico Mucuñuque",14,,8.75533,-70.80076
"Pico Naiguatá",15,,10.54247,-66.7822
"Pico Phelps",4,,0.80659,-66.00411
"Piedra del Cucuy",1,,1.23333,-66.81667
"Piedras Blancas",6,,7.29056,-62.985
Pinango,14,,9.03261,-70.88128
"Píritu Municipality",2,,10.03891,-65.02975
"Playa Blanca",6,,4.36278,-61.82278
"Plaza Municipality",15,,10.5,-66.66667
"Plaza Parque Carabobo",25,,10.50154,-66.90484
Polós,23,,11.64719,-71.81307
Porlamar,17,,10.95771,-63.86971
Portuguesa,18,,9.16667,-69.25
Potosí,20,,7.95106,-71.65394
Praitepuy,6,,4.59667,-61.49556
Ptari-tepuí,6,,5.76667,-61.76667
"Pueblo Llano Municipality",14,,8.91485,-70.65919
"Puerto Ayacucho",1,,5.66049,-67.58343
"Puerto Cabello",7,,10.47306,-68.0125
"Puerto Cabello Municipality",7,,10.48757,-68.052
"Puerto Chichiriviche",11,,10.91667,-68.26667
"Puerto Cruz",2,,10.21382,-64.6328
"Puerto Cumarebo",11,,11.48611,-69.35
"Puerto De Hierro",19,,10.63333,-62.1
"Puerto Francés",15,,10.57509,-66.06704
"Puerto Maya",4,,10.53333,-67.4
"Puerto Miranda",23,,10.77523,-71.55846
"Puerto Ordaz and San Felix",6,,8.29829,-62.72198
"Puerto Paez Airport",3,,6.22333,-67.44593
"Puerto Píritu",2,,10.05896,-65.03698
Puipui,19,,10.68577,-62.98336
Púlpito,20,,8.46815,-72.15963
"Punceres Municipality",16,,9.97798,-63.21928
"Punta Cardón",11,,11.65806,-70.215
"Punta de Amuay",11,,11.77337,-70.24518
"Punta de Barco",11,,12.06667,-69.85
"Punta de Mata",16,,9.69131,-63.60921
"Punta de Piedras",17,,10.90141,-64.10344
"Punta Guaiguacara",15,,10.60084,-66.12817
"Punta Maragüey",11,,11.46597,-70.14906
"Punta Naca",19,,10.71154,-62.34351
"Punta Palúmou",23,,11.63817,-71.81905
"Punto Fijo",11,,11.69152,-70.19918
Quíbor,13,,9.92866,-69.6201
Quiñoncito,22,,10.31059,-68.48907
"Rafael Rangel Municipality",21,,9.37568,-70.73131
"Rafael Urdaneta Municipality",20,,7.56505,-72.44754
"Rangel Municipality",14,,8.75,-70.83333
"Raya Abajo",23,,9.84139,-70.87972
"Región Sur",1,,3,-65.5
"Región Zuliana",23,,10,-72
"Ricaurte Municipality",8,,9.33333,-68.66667
"Río Caribe",19,,10.6977,-63.10871
"Río Chico",15,,10.31899,-65.97751
"Río Negro Municipality",1,,1.71361,-66.07178
"Rojas Municipality",5,,8.32463,-69.63006
"Rómulo Gallegos Municipality",8,,9.53727,-68.6296
"Rosario de Perijá Municipality",23,,10.32573,-72.31441
"Roscio Municipality",6,,7.14846,-62.11782
Rubio,20,,7.70156,-72.35551
"Sabana de Parra",22,,10.12111,-69.03639
Sabaneta,5,,8.75234,-69.93351
"Samuel Darío Maldonado Municipality",20,,8.50757,-71.83166
"San Antonio de Los Altos",15,,10.38853,-66.95179
"San Antonio del Táchira",20,,7.8112,-72.44437
"San Carlos",8,,9.66124,-68.58268
"San Carlos del Zulia",23,,9.00098,-71.92683
"San Casimiro",4,,10,-66.91667
"San Cristóbal",20,,7.76694,-72.225
"San Cristóbal Paramillo Airport",20,,7.80132,-72.20285
"San Diego",7,,10.25614,-67.95413
"San Esteban National Park",7,,10.39707,-67.96426
"San Felipe",22,,10.33991,-68.74247
"San Felipe Municipality",22,,10.5,-68.63333
"San Felipe Nestor Arias Airport",22,,10.27873,-68.75521
"San Fernando de Apure",3,,7.88782,-67.47236
"San Fernando de Atabapo",1,,4.04564,-67.69934
"San Francisco Municipality",11,,11.1602,-68.72604
"San Genaro de Boconoito Municipality",18,,8.84659,-69.98032
"San Gerónimo de Guayabal Municipality",12,,8.00076,-67.3994
"San Joaquín",7,,10.26061,-67.79348
"San Joaquín Municipality",7,,10.29139,-67.78056
"San José de Barlovento",15,,10.30125,-65.99053
"San José de Guanipa",2,,8.88724,-64.16512
"San José de Guaribe Municipality",12,,9.86025,-65.81306
"San Josecito",20,,7.66106,-72.22009
"San Juan Bautista",17,,11.01243,-63.94412
"San Juan de Capistrano Municipality",2,,10.13152,-65.42115
"San Juan de Colón",20,,8.03125,-72.26053
"San Juan de las Galdonas",19,,10.70964,-62.84566
"San Juan de los Morros",12,,9.91152,-67.35381
"San Judas Tadeo Municipality",20,,8.26588,-72.06371
"San Mateo",2,,9.74004,-64.54937
"San Pedro de Coche",17,,10.78153,-63.99636
"San Rafael",18,,9.30878,-70.05223
"San Rafael de Carvajal Municipality",21,,9.30756,-70.58965
"San Rafael de Onoto Municipality",18,,9.67742,-68.97344
"San Salvador de Paul Airport",6,,7,-62
"San Sebastián Municipality",4,,10,-67.16667
"San Tomé",2,,8.13333,-64.94167
Sanare,13,,9.75209,-69.6524
"Santa Ana",17,,11.06831,-63.92256
"Santa Ana Municipality",2,,9.30578,-64.65398
"Santa Bárbara",23,,8.99475,-71.91364
"Santa Bárbara de Barinas Airport",5,,7.80351,-71.16572
"Santa Bárbara Municipality",16,,9.60617,-63.60809
"Santa Barbara Zulia Airport",23,,8.97443,-71.94301
"Santa Cruz de Mara",23,,10.79269,-71.68505
"Santa Cruz de Mora",14,,8.39925,-71.64082
"Santa Elena de Uairén",6,,4.60226,-61.11025
"Santa Elena de Uairén Airport",6,,4.55472,-61.14492
"Santa María",11,,11.21778,-70.03028
"Santa María de Ipire Municipality",12,,8.81556,-65.3225
"Santa Rita",23,,10.53642,-71.51104
"Santa Rita Municipality",23,,10.53473,-71.50692
"Santa Rosa de Amanadona",1,,1.4745,-66.90639
"Santa Rosalía Municipality",18,,9.09857,-69.04914
"Santa Teresa del Tuy",15,,10.23291,-66.66474
"Santiago Mariño",4,,10.22388,-67.47288
"Santiago Mariño Caribbean International Airport",17,,10.91293,-63.96758
"Santo Domingo",20,,7.56944,-72.01658
"Santos Luzardo National Park",3,,6.72091,-67.57085
"Santos Michelena Municipality",4,,10.25237,-67.18472
"Seboruco Municipality",20,,8.14712,-72.06385
"Segovia Highlands",11,,11,-70
"Serranía Quinigua",1,,4.33333,-65.41667
"Sierra Nevada",14,,8.55708,-70.9926
"Sifontes Municipality",6,,7.24809,-61.53151
Siloé,14,,8.4622,-71.69101
"Simón Bolívar International Airport",26,,10.60046,-66.99811
"Simón Bolívar Municipality",23,,10.25838,-71.36865
"Simón Rodríguez Municipality",20,,8.35078,-71.85028
"Sir Arthur McGregor Municipality",2,,9.15227,-65.01537
Socopó,5,,8.23062,-70.82198
Soledad,2,,8.16206,-63.5654
Sororopán-tepuí,6,,5.75,-61.71667
"Sosa Municipality",5,,8.09475,-69.30828
"Sotillo Municipality",16,,8.66843,-62.44942
"South Monks",24,,12.36029,-70.90233
Sucre,19,,10.41667,-63.5
"Sucre Municipality",21,,9.43399,-70.77341
"Sucrev Municipality",23,,9.08333,-71.25
Tabay,14,,8.6317,-71.07833
Tacarigua,7,,10.08621,-67.91982
"Tacarigua de Mamporal",15,,10.39668,-66.15164
"Tacarigua La Laguna",15,,10.30369,-65.87673
Tácata,15,,10.20905,-67.00587
Táchira,20,,7.83333,-72.08333
Tanaguarena,26,,10.61096,-66.82475
Tapipa,15,,10.2287,-66.31127
Táriba,20,,7.82117,-72.22329
Temblador,16,,9.00525,-62.64493
Tiguadare,11,,11.623,-70.14175
Timotes,14,,8.98224,-70.73926
Tinaco,8,,9.69894,-68.43273
"Tinaco Municipality",8,,9.66667,-68.33333
Tinaquillo,8,,9.91861,-68.30472
"Tinaquillo Municipality",8,,9.91667,-68.33333
Tocuyo,13,,9.78709,-69.79294
"Tocuyo de La Costa",11,,11.0357,-68.37448
"Tomás de Heres Airport",6,,8.1219,-63.53735
"Torbes Municipality",20,,7.66149,-72.21039
"Torres Municipality",13,,10.16667,-70.25
"Tovar Municipality",4,,10.40353,-67.2916
Trincheras,7,,10.30583,-68.08787
Trujillo,21,,9.36583,-70.43694
"Trujillo Municipality",21,,9.36008,-70.43433
"Tubores Municipality",17,,10.95,-64.08333
Tucacas,11,,10.79006,-68.32564
Tucuco,23,,9.83333,-72.86667
Tucupita,9,,9.05806,-62.05
"Tucupita Airport",9,,9.08899,-62.09417
"Tucupita Municipality",9,,9.30889,-61.7134
"Tulio Febres Cordero Municipality",14,,9.14176,-71.0912
Tumeremo,6,,7.29861,-61.50497
"Tumeremo Airport",6,,7.24945,-61.52854
Turagua,4,,10.14397,-67.51896
"Turén Municipality",18,,9.16667,-68.83333
Turmero,4,,10.22856,-67.47421
Uei-tepuí,6,,6.11667,-62.53333
"Unión Municipality",11,,10.81953,-69.27776
"Uonquén Airport",6,,4.983,-61.729
Upata,6,,8.0162,-62.40561
Upuigma-tepuí,6,,5.11667,-61.93333
"Urachiche Municipality",22,,10.13333,-69
"Urdaneta Municipality",4,,9.71667,-66.8
Urejema,23,,11.65878,-71.79379
Urena,20,,7.92162,-72.44396
Urica,2,,9.71404,-64.00759
"Uriman Airport",6,,5.33333,-62.76667
"Urumaco Municipality",11,,11.19913,-70.25499
"Valdez Municipality",19,,10.57945,-62.30029
Valencia,7,,10.16202,-68.00765
"Valencia Municipality",7,,10.13973,-68.01955
Valera,21,,9.31778,-70.60361
"Valera Airport",21,,9.3408,-70.58409
"Valera Municipality",21,,9.3206,-70.60776
"Valle de Guanape",2,,9.90999,-65.67405
"Valle de la Pascua",12,,9.222,-65.993
"Valmore Rodríguez",23,,9.9702,-71.14729
"Vargas Municipality",26,,10.59901,-66.9346
"Veroes Municipality",22,,10.46967,-68.55857
"Villa Bruzual",18,,9.33186,-69.11968
"Villa de Cura",4,,10.03863,-67.48938
Yagua,7,,10.26,-67.904
Yaguaraparo,19,,10.56839,-62.82628
Yaracuy,22,,10.33974,-68.73734
Yaritagua,22,,10.08081,-69.1242
Yavarano,1,,5.5,-65.83333
Yumare,22,,10.59703,-68.67328
"Zamora Municipality",4,,10.06667,-67.5
Zaraza,12,,9.35029,-65.32452
"Zea Municipality",14,,8.37628,-71.78185
"Zona Industrial Número Dos",23,,10.56517,-71.67279
"Zona Industrial Número Uno",23,,10.58857,-71.6665
Zulia,23,,10,-72.16667
