ciudad,idprovincia,codeid,latitude,longitude
Abangares,3,,10.24253,-84.99081
Abangaritos,7,,10.12279,-85.01688
Acosta,8,,9.74493,-84.23601
Aguabuena,7,,8.73791,-82.94499
Aguacaliente,3,,10.46953,-85.22559
Aguilares,3,,10.50058,-85.00117
Alajuela,1,,10.02408,-84.20609
"Alajuela Province",1,,10.5,-84.5
Alajuelita,8,,9.90294,-84.10037
"Alta Talamanca",6,,9.53333,-83
Altamira,1,,10.46667,-84.35
"Alto Cebadilla",3,,10.32782,-84.85675
"Alto Limón",8,,9.73724,-84.35483
"Alto Palo Campano",8,,9.89411,-84.12253
"Alto Palomas",8,,9.9382,-84.16326
"Alto Tapezco",8,,9.89712,-84.15901
"Altos Pascua",6,,10.02802,-83.64423
Alvarado,2,,9.93333,-83.80352
Ángeles,1,,10.25213,-84.59287
"Ángeles Sur",1,,10.13367,-84.47463
Ánimas,2,,9.91113,-83.65285
"Anita Grande Plaza",6,,10.2408,-83.7298
"Anselmo Llorente",8,,9.95674,-84.07043
Aquiares,2,,9.93973,-83.72149
Arancibia,7,,10.23117,-84.71842
Arcángeles,8,,9.88316,-84.1216
"Arenal Volcano",1,,10.46215,-84.70322
"Arenal Volcano National Park",1,,10.46251,-84.7024
"Arenas Point",7,,9.97668,-84.85155
Arío,7,,9.70064,-85.20902
Aserrí,8,,9.855,-84.10844
Atalanta,6,,9.72,-82.99219
Atenas,1,,9.98085,-84.36956
"Ave de Azul de la Osa",7,,8.45047,-83.38872
Bagaces,3,,10.46545,-85.28282
"Bahía Ballena",7,,9.17551,-83.72658
"Baja Talamanca",6,,9.61667,-82.76667
"Bajo Badilla",8,,9.78435,-84.27863
"Bajo del Toro",1,,10.21852,-84.29044
"Bajo del Tulín",8,,9.71667,-84.4
"Bajo Mora",7,,9.93729,-85.26458
Bambú,6,,9.55392,-82.89257
"Banano Chiquita",4,,10.4547,-83.98099
Barbacoas,8,,9.8549,-84.36252
"Barra de Parismina Airport",6,,10.30276,-83.34641
"Barra del Colorado",6,,10.7718,-83.5991
"Barra del Colorado Airport",6,,10.7687,-83.5856
"Barra Honda National Park",3,,10.18738,-85.31879
Barranca,7,,9.99019,-84.71119
Barrantes,4,,10.0137,-84.15185
Barva,4,,10.0669,-84.1085
Batán,6,,10.09285,-83.3516
Bebedero,3,,10.36912,-85.19453
Belén,3,,10.40789,-85.58836
Bellavista,1,,10.19217,-84.42147
Biolley,7,,9.04543,-83.03617
Birrisito,2,,9.84862,-83.84537
"Boca Barranca",7,,9.96234,-84.73729
"Boca de Arenal",1,,10.53028,-84.47871
"Boca del Pantano",6,,10.07234,-83.15839
Bolívar,1,,10.13627,-84.29825
Bomba,6,,9.91858,-83.0662
"Boruca people",7,,9.00204,-83.32555
"Bosque de la Hoja",4,,10.06236,-84.09483
Brasil,8,,9.9388,-84.22886
"Braulio Carrillo National Park",8,,10.1599,-83.97442
Bribri,6,,9.62569,-82.85051
Brunka,7,,9.23614,-83.38252
Buenavista,1,,10.7759,-84.81576
"Buenos Aires",7,,9.17298,-83.33277
"Buenos Aires Airport",7,,9.16361,-83.3299
Búfalo,6,,10.0053,-83.17208
"Cabecera de Lajas",3,,10.34311,-84.98458
"Cabo Atrevido",7,,5.53295,-87.02941
"Cabo Barreto",7,,5.53951,-87.08208
"Cabo Blanco",7,,9.93376,-84.98976
"Cabo Descubierta",7,,5.51973,-87.04403
"Cabo Duplicado",7,,5.52598,-87.09174
"Cabo Matapalo",7,,8.37486,-83.29147
"Cabo Velas",3,,10.35622,-85.87571
Cachí,2,,9.82504,-83.80284
"Cacique Point",3,,10.5723,-85.69896
Cahuita,6,,9.66904,-82.80462
"Cahuita National Park",6,,9.7288,-82.82367
Caldera,7,,9.93494,-84.72356
"Calderas Bluff",7,,9.90065,-84.72962
"Calle Blancos",8,,9.94856,-84.06675
"Camaronal Wildlife Refuge",3,,9.8433,-85.43266
Cambronero,1,,10.03686,-84.54986
Canas,3,,10.43105,-85.09825
Candelarita,8,,9.78948,-84.3358
Canjel,7,,9.97032,-85.21193
"Caño Negro Wildlife Refuge",1,,10.91399,-84.7964
Canoas,7,,8.55416,-82.8796
Capellades,2,,9.95546,-83.79288
"Carara National Park",7,,9.73639,-84.5956
Cariblanca,1,,10.41211,-84.41017
Carmona,3,,9.98893,-85.25986
Carrandi,6,,10.02952,-83.22891
Carrillo,3,,9.86591,-85.4805
"Carrillo (Samara) Domestic Airport",3,,9.87051,-85.4814
Carrillos,1,,10.03628,-84.27317
Cartago,2,,9.81614,-83.91394
"Cartago Province",2,,9.83333,-83.75
Cascajal,8,,10.03244,-83.92888
"Castilla de Oro",3,,10.43914,-85.59837
Catedral,8,,9.92619,-84.07307
Ceiba,1,,9.89977,-84.59906
"Cerro Asunción",2,,9.5748,-83.75763
"Cerro Bandera",8,,9.8885,-84.15433
"Cerro Buenavista",8,,9.5531,-83.75674
"Cerro Caballito",3,,10.22091,-85.35225
"Cerro Cañas Dulces",3,,10.74804,-85.44125
"Cerro Cedral",8,,9.85894,-84.14557
"Cerro Chato",1,,10.44272,-84.68845
"Cerro Chirripó",6,,9.48411,-83.48861
"Cerro Coyotes",8,,9.94759,-84.16633
"Cerro de La Cruz",8,,9.86667,-84.13333
"Cerro de la Muerte",8,,9.55378,-83.7562
"Cerro Dúrika",6,,9.37577,-83.304
"Cerro Echandi",7,,9.03064,-82.81981
"Cerro El Jocote",3,,10.38245,-85.32641
"Cerro Góngora",3,,10.95,-85.46667
"Cerro Herradura",7,,9.69353,-84.60355
"Cerro Hondura",8,,10.06735,-84.0201
"Cerro Juan Díaz",3,,10.18461,-85.54738
"Cerro Kámuk",6,,9.27031,-83.03193
"Cerro La Cruz",3,,10.12797,-85.4545
"Cerro La Cruze Protected Zone",3,,10.13002,-85.45381
"Cerro Las Bolas",7,,9.11487,-83.47919
"Cerro Las Lomas",6,,10.35159,-83.57736
"Cerro Las Tres Marías",8,,10.06667,-83.98333
"Cerro Mamey",7,,8.64953,-82.83891
"Cerro Maquenco",3,,9.96667,-85.56667
"Cerro Montaña",3,,10.16667,-85.63333
"Cerro Pacacua",8,,9.90117,-84.20648
"Cerro Palomas",8,,9.95426,-84.17551
"Cerro Páramo",8,,9.53333,-83.71667
"Cerro Pico Alto",8,,9.84525,-84.13043
"Cerro Pico Blanco",8,,9.87291,-84.14843
"Cerro Rabo de Mico",8,,9.8479,-84.13774
"Cerro Raspa Huacal",3,,10.2,-85.11667
"Cerro Redondo",4,,10.06536,-84.07664
"Cerro San Miguel",7,,10.02059,-84.7064
"Cerro San Roque",3,,10.77261,-85.46155
"Cerro Tacuotari",8,,9.86694,-84.17096
"Cerro Tibás",4,,10.07418,-84.05327
"Cerro Turrubares",8,,9.79308,-84.47085
"Cerro Turú",4,,10.06107,-84.04075
"Cerro Urán",8,,9.51223,-83.53552
"Cerro Varillal",3,,10.09543,-85.44301
"Cerro Ventisqueros",8,,9.47463,-83.50854
"Cerro Vueltas",8,,9.61608,-83.85666
"Cerro Zapote",7,,8.75023,-82.98282
"Cerro Zurquí",8,,10.06166,-84.02502
"Cerros Barra Honda",3,,10.17507,-85.35861
"Cerros Cerco de Piedra",3,,10.20661,-85.13423
"Cerros Chocuaco",7,,8.74066,-83.56089
"Cerros Coral de Piedra",3,,10.23626,-85.31817
"Cerros de Dota",8,,9.61667,-84.15
"Cerros de Escazú",8,,9.86862,-84.15823
"Cerros de Jesús",3,,10.09483,-85.3238
"Cerros de la Carpintera",2,,9.88423,-83.9836
"Cerros de los Tirrases",8,,9.9,-84.03333
"Cerros de Salsipuedes",7,,8.58333,-83.5
"Cerros de San Blas",3,,10.16667,-85.66667
"Cerros de Zapotal",3,,10.24578,-85.16151
"Cerros Guayacán",3,,10.35209,-85.34703
"Cerros Santa Elena",3,,10.8838,-85.82978
"Cerros Utyum",6,,9.32518,-83.17412
"Cerros Volcán Vieja",1,,10.26085,-84.32991
Cervantes,2,,9.89245,-83.80397
Chacarita,7,,9.98426,-84.76899
Chánguena,7,,8.89156,-83.18077
Chirripó,2,,9.77195,-83.48309
"Chirripo National Park",2,,9.51608,-83.46728
Chomes,7,,10.04412,-84.90934
Chumburán,3,,9.99419,-85.51369
Cinchona,1,,10.22367,-84.16744
"Cinco Esquinas",8,,9.94652,-84.08232
"Cirrí Sur",1,,10.15242,-84.36573
Ciruelas,7,,10.06234,-84.75902
"Cocos Island",7,,5.528,-87.06275
Colima,8,,9.95532,-84.08235
Colinas,7,,9.03511,-83.45359
Colón,8,,9.90094,-84.25597
"Colonia del Toro",1,,10.30013,-84.24555
"Colonia Salvador",4,,10.23333,-83.93333
Colorado,6,,10.77016,-83.5954
Concepción,1,,10.12795,-84.43596
"Conic Island",7,,5.55027,-87.03253
Copalchí,2,,9.81935,-84.03494
"Corcovado National Park",7,,8.5424,-83.57094
"Cordillera Central",2,,10.01741,-83.76381
Corredor,7,,8.62421,-82.94383
Corredores,7,,8.53238,-82.91879
Cot,2,,9.88928,-83.8697
Cote,1,,10.62023,-84.90271
"Coto 47 Airport",7,,8.60156,-82.9686
"Coto Brus",7,,8.88546,-82.94119
Cureña,4,,10.69064,-84.07532
Curridabat,8,,9.91654,-84.03737
"Curú Wildlife Refuge",7,,9.77553,-84.94598
Curubandé,3,,10.71942,-85.40963
Cutris,1,,10.71047,-84.34369
Damas,8,,9.88875,-84.04502
"Daniel Oduber Quirós International Airport",3,,10.59329,-85.54441
Delicias,7,,10.07248,-84.72851
Desamparaditos,8,,9.87984,-84.34069
Desamparados,8,,9.89741,-84.07048
"Diria National Park",3,,10.17306,-85.59361
"Dirty Rock",7,,5.5451,-87.09004
Dominica,7,,9.91976,-85.10371
Dominical,7,,9.25348,-83.86429
"Dos de Abangares",3,,10.36896,-84.90297
"Dos Ríos",1,,10.89576,-85.38173
Dota,8,,9.58858,-83.92247
"Drake Bay Airport",7,,8.71892,-83.63921
Duacarí,6,,10.32139,-83.61706
"Duacari 2 Airport",6,,10.35127,-83.63063
"Dulce Nombre de Jesús",8,,10.08888,-83.97975
"El Amo",3,,11.03251,-85.59126
"El Barón",7,,9.96169,-84.61825
"El Cairo",6,,10.20049,-83.50756
"El Chayote",1,,10.17997,-84.35151
"El Espavel",3,,11.11802,-85.47384
"El Guarco",2,,9.73931,-83.92735
"El Muerto",3,,10.706,-85.50456
"El Roble",7,,9.98268,-84.74185
"El Rosario",1,,10.0439,-84.3782
"El Tejar",2,,9.84372,-83.94746
"El Zapotal",7,,10.01118,-84.79755
Escazú,8,,9.91834,-84.14929
Esparza,7,,9.99197,-84.66628
"Espíritu Santo",7,,9.96816,-84.69768
Esquipulas,1,,10.05676,-84.42337
"Fila de Bustamante",8,,9.71667,-84.13333
"Fila Palo de Arco",3,,10.39049,-85.77567
Filadelfia,3,,10.44458,-85.55153
"Finca 63 Airport",7,,8.65107,-83.06462
"Finca Joya",2,,9.97991,-83.66044
Flamingo,3,,10.43481,-85.79181
Florencia,1,,10.36131,-84.47496
Flores,4,,10.0064,-84.1549
Florida,6,,10.04371,-83.62613
Frailes,8,,9.75463,-84.06512
Francia,6,,10.12725,-83.54328
Gamalotal,3,,10.06113,-85.5061
"Gamalotillo Dos",8,,9.60985,-84.44332
"Gandoca Manzanillo National Wildlife Refuge",6,,9.61236,-82.68293
Garabito,7,,9.61903,-84.62013
Garza,3,,9.91066,-85.64386
"General Viejo",8,,9.3671,-83.66793
Goicoechea,8,,9.94848,-84.06365
Golfito,7,,8.65416,-83.17554
"Golfito Airport",7,,8.65401,-83.1822
"Golfito National Wildlife Refuge",7,,8.65504,-83.22066
"Golfo de Papagayo",3,,10.72678,-85.80766
"Golfo Dulce Forest Reserve",7,,8.75821,-83.48788
Granadilla,8,,9.93203,-84.01964
Grecia,1,,10.06968,-84.31311
"Grecia Forest Reserve",1,,10.14194,-84.24939
"Grifo Alto",8,,9.87738,-84.39489
Guácima,1,,9.9622,-84.25479
Guacimal,7,,10.21914,-84.83096
Guácimo,6,,10.17502,-83.70341
Guadalupe,8,,9.94864,-84.05108
Guaitil,8,,9.78952,-84.23747
"Guanacaste National Park",3,,10.97081,-85.54062
"Guanacaste Province",3,,10.5,-85.25
Guápiles,6,,10.19173,-83.84672
"Guapiles Airport",6,,10.2172,-83.797
Guardia,3,,10.56334,-85.59037
Guatuso,1,,10.67941,-84.83689
Guayabo,8,,9.86163,-84.26392
"Guayabo National Monument",2,,9.97291,-83.69762
Guaycará,7,,8.71264,-83.0762
"Hacienda Coronado",1,,10.4,-84.5
"Hacienda Mojica",3,,10.40539,-85.19602
Hatillo,8,,9.91837,-84.10246
Heredia,4,,9.9866,-84.1315
"Heredia Province",4,,10.33333,-84
Higuerón,3,,10.35047,-85.05256
"Hitoy Cerere Biological Reserve",6,,9.65033,-83.10917
Hojancha,3,,10.04517,-85.42574
Hospital,8,,9.92772,-84.08872
Huacas,3,,10.02198,-85.3646
Ipís,8,,9.96452,-84.01974
"Irazú Volcano",2,,9.98239,-83.84959
"Irazú Volcano National Park",2,,9.97899,-83.85366
"Isla Alcatraz",7,,9.77909,-84.90065
"Isla Aves",7,,9.92715,-84.91315
"Isla Berrugate",3,,10.04398,-85.15733
"Isla Bolaños",3,,11.04788,-85.70897
"Isla Bolaños National Wildlife Refuge",3,,11.04815,-85.71124
"Isla Cabo Blanco",7,,9.54196,-85.11286
"Isla Cabuya",7,,9.59519,-85.08028
"Isla Capitán",3,,10.29969,-85.85407
"Isla Cedros",7,,9.84626,-84.87825
"Isla Chira",7,,10.0999,-85.15147
"Isla Cocinero",3,,10.85725,-85.90508
"Isla Colorada",3,,10.84402,-85.86503
"Isla del Caño",7,,8.70593,-83.87959
"Isla Del Coco",7,,5.52873,-87.06135
"Isla del Coco National Park",7,,5.53295,-87.05893
"Isla Despensa",3,,11.00286,-85.74584
"Isla Guayabo",7,,9.91171,-84.87844
"Isla Herradura",7,,9.62886,-84.67135
"Isla Juanilla",3,,10.98183,-85.71549
"Isla Manuelita",7,,5.56135,-87.04765
"Isla Mogote",7,,9.36617,-84.11581
"Isla Olocuita",7,,9.37339,-84.15539
"Isla Pájaros",7,,10.09371,-84.99641
"Isla Pan de Azúcar",7,,9.92424,-84.90104
"Isla Pelada",3,,10.87255,-85.8926
"Isla Piedra Blanca",3,,9.85,-85.51667
"Isla Plata",3,,10.44794,-85.80321
"Isla Rafael",7,,5.50512,-87.06802
"Isla Saíno",3,,10.32076,-85.34352
"Isla San Lucas",7,,9.94024,-84.90496
"Isla Sombrero",7,,10.03026,-85.12078
"Isla Tolinga",7,,9.76925,-84.89275
"Isla Uvita",6,,9.99342,-83.01113
"Isla Venado",7,,9.9865,-85.0607
"Isla Violín",7,,8.79895,-83.63598
"Isla Yuca",7,,10.13678,-85.13418
"Islas Cortezas",7,,10.06798,-84.97706
"Islas Dos Amigos",7,,5.51009,-87.10141
"Islas Murciélago",3,,10.8539,-85.92582
"Islas Negritos",7,,9.82336,-84.8456
"Islas Palmitas",3,,10.64081,-85.69268
Jaboncillal,8,,9.95894,-83.99244
Jacó,7,,9.62749,-84.60102
Jardín,8,,9.71368,-83.97036
Jaular,8,,9.85083,-84.14534
"Jesús María",1,,9.9452,-84.60973
Jicotea,2,,9.81276,-83.54034
Jiménez,6,,10.1869,-83.75734
Jocote,3,,10.47005,-85.56165
"Juan Castro Blanco National Park",1,,10.27794,-84.33317
"Juan Santamaría International Airport",1,,9.99386,-84.20881
"Juan Viñas",2,,9.90167,-83.74651
"Judas Point",7,,9.51881,-84.53546
"Junquillal Bay Wildlife Refuge",3,,10.96439,-85.6842
"Junquillo Abajo",8,,9.83656,-84.30496
Juntas,3,,10.28082,-84.95912
Katira,1,,10.74585,-84.91825
"Kilómetro 33",7,,8.7012,-83.1302
"La Amistad International Park",7,,9.4071,-82.9388
"La Asunción",4,,9.97955,-84.17178
"La Cangreja National Park",8,,9.70341,-84.39788
"La Cruz",3,,11.07377,-85.63272
"La Danta",7,,9.10224,-83.46723
"La Fortuna",3,,10.67434,-85.19962
"La Fortuna Arenal Airport",1,,10.4695,-84.57876
"La Gamba",7,,8.70115,-83.20169
"La Garita",1,,9.98457,-84.33844
"La Isabel",2,,9.92893,-83.66208
"La Palmera",1,,10.42037,-84.38235
"La Selva Biological Station and Reserve",4,,10.422,-84.015
"La Suiza",2,,9.85065,-83.6169
"La Tigra",1,,10.34045,-84.5814
"La Unión",7,,10.19091,-84.70582
"La Verbena",8,,9.91667,-84.1
"Lago de Cote",1,,10.58145,-84.91172
"Laguna Bosque Alegre",1,,10.29916,-84.2187
"Laguna Caño Negro",1,,10.88271,-84.77929
"Laguna Congo",1,,10.30518,-84.21636
"Laguna de Arenal",3,,10.51738,-84.90104
"Laguna de Yurro Hondo",1,,10.33333,-84.23333
"Laguna Hule",1,,10.29524,-84.20881
"Laguna La Carmelita",4,,10.07745,-84.1014
"Laguna Río Cuarto",1,,10.35604,-84.21687
"Laguna Roblar",3,,10.25,-85.3
Lajas,2,,9.9758,-83.64524
"Las Juntas",3,,10.24858,-84.99689
Laurel,7,,8.44985,-82.96877
"Laurel Airport",7,,8.44003,-82.9082
Legua,1,,10.53142,-84.28741
"León Cortés Castro",8,,9.683,-84.04781
"León XIII",8,,9.95995,-84.10066
Liberia,3,,10.70152,-85.47576
Libertad,3,,10.49211,-85.63422
Limón,6,,9.76667,-83.16667
"Limón International Airport",6,,9.95796,-83.02201
"Limón Province",6,,10,-83.21667
"Llano Grande",2,,9.94051,-83.91762
"Llano Piedra",8,,9.6473,-83.9948
"Llano Verde",7,,9.05034,-83.18694
Llanos,1,,10.46281,-84.3442
"Llanura de San Carlos",1,,10.61667,-84.16667
"Llanuras de los Guatusos",1,,10.91667,-84.88333
"Los Chiles",1,,11.03253,-84.71544
"Los Chiles Airport",1,,11.0353,-84.7061
"Los Planes",3,,10.41788,-85.62381
"Los Quetzales National Park",8,,9.53613,-83.88971
Lucha,7,,8.88746,-82.81415
Malpais,7,,9.65,-85.0666
Mansión,3,,10.10148,-85.37205
"Manuel Antonio National Park",7,,9.40207,-84.13824
Manzanillo,7,,10.14076,-85.01197
Maquenco,3,,9.96675,-85.51438
Margarita,6,,9.6012,-82.76179
"Marino Ballena National Park",7,,9.15497,-83.7482
"Marino Las Baulas National Park",3,,10.33562,-85.84735
"Mata de Palo",8,,9.95,-84.15
"Mata de Plátano",8,,9.95332,-84.01668
"Mata Redonda",8,,9.93508,-84.10727
Matina,6,,9.96184,-83.2933
Merced,8,,9.93968,-84.08838
Mercedes,6,,10.1401,-83.65493
"Mercedes Norte",4,,10.00611,-84.13018
Mesas,3,,11.04052,-85.62432
"Meseta Central",8,,9.91667,-84.08333
"Milla Seis",6,,10.19441,-83.49202
Miramar,7,,10.11241,-84.7394
"Miravalles-Santa Rosa Biological Corridor",3,,10.85159,-85.67129
"Miravalles Volcano Protected Area",1,,10.74684,-85.14999
Mona,7,,9.65537,-84.62085
Montaña,3,,10.20723,-85.7023
Montañita,3,,10.59783,-85.3955
"Monte Verde",7,,10.29144,-84.82479
Monterrey,8,,9.75677,-84.11098
"Montes de Oca",8,,9.9396,-84.03013
"Montes de Oro",7,,10.10849,-84.74151
"Montes del Aguacate",1,,10.02153,-84.47917
"Monteverde Cloud Forest Reserve",7,,10.303,-84.79732
Montezuma,7,,9.6551,-85.06791
Mora,8,,9.88071,-84.25036
Moravia,8,,10.04,-84
"Muelle San Carlos",1,,10.47194,-84.46582
Nandayure,3,,10.03333,-85.2
Naranjo,1,,10.09866,-84.37824
Neily,7,,8.64825,-82.94096
Nicoya,3,,10.11832,-85.50519
"Nicoya Airport",3,,10.13948,-85.44617
Nosara,3,,9.98112,-85.65141
"Nosara Airport",3,,9.97649,-85.653
"Nuestra casa",2,,9.83813,-83.98845
"Nuevo Arenal",3,,10.54523,-84.89624
Oreamuno,2,,9.9636,-83.8523
Orosi,2,,9.79617,-83.85383
Orotina,1,,9.90397,-84.52742
Osa,7,,8.84183,-83.41932
"Osa Peninsula",7,,8.55,-83.5
"Ostional National Wildlife Refuge",3,,9.99646,-85.70409
Pacayas,2,,9.93973,-83.81909
Pacuarito,6,,10.10314,-83.42112
Pájaros,7,,10.10192,-84.9977
Palmar,7,,8.95,-83.43
"Palmar Norte",7,,8.96125,-83.45504
"Palmar Sur",7,,8.94773,-83.46678
"Palmar Sur Airport",7,,8.95028,-83.46811
Palmares,1,,10.05409,-84.43286
Palmichal,8,,9.83802,-84.20405
Palmira,3,,10.59548,-85.08278
Pandora,6,,9.73883,-82.96379
Paquera,7,,9.82005,-84.93513
Paracito,4,,10.00037,-84.02731
Paraíso,1,,10.31179,-84.27122
Parismina,6,,10.30791,-83.35104
"Parque Calián Vargas",1,,10.01446,-84.2143
"Parque Central de Guápiles",6,,10.21448,-83.78855
"Parque Central de San Ramón",1,,10.08735,-84.47014
"Parque Central Nicolás Ulloa",4,,9.99848,-84.11727
"Parque Cubujuquí",4,,9.99946,-84.12962
"Parque de Curridabat",8,,9.91443,-84.03808
"Parque de la Merced",8,,9.93336,-84.08462
"Parque de la Paz",8,,9.91355,-84.07398
"Parque de las Embarazadas",4,,10.00098,-84.11556
"Parque de los Ángeles",4,,9.99619,-84.11974
"Parque El Arroyo",1,,10.01376,-84.21113
"Parque El Carmen",4,,9.99668,-84.1153
"Parque España",8,,9.93592,-84.07371
"Parque Héctor Zúñiga Rovira",3,,10.62943,-85.44106
"Parque Jesús Jiménez Zamora",2,,9.86673,-83.9212
"Parque Juan Santamaría",1,,10.0147,-84.21367
"Parque Marino del Pacifico",7,,9.97705,-84.82684
"Parque Mario Cañas Ruiz",3,,10.62978,-85.43828
"Parque Metropolitano La Sabana",8,,9.93536,-84.10463
"Parque Mora y Cañas",7,,9.97875,-84.8366
"Parque Morazán",8,,9.93553,-84.07539
"Parque Nacional",8,,9.93454,-84.07089
"Parque Okayama",8,,9.90507,-84.05683
"Parque Palmares",1,,10.02003,-84.21409
"Parque Próspero Fernández",1,,10.0171,-84.21861
"Parque Recaredo Briceño",3,,10.14257,-85.45361
"Parque Victoria",7,,9.97879,-84.83406
Parrita,7,,9.56199,-84.31704
Pascua,6,,10.02692,-83.60924
"Paso Canoas",7,,8.53841,-82.8443
"Paso Canoas Airport",7,,8.95681,-83.54806
"Paso de las Lapas Biological Corridor",7,,9.60646,-84.59781
"Paso Tempisque",3,,10.5022,-85.57284
Patalillo,8,,9.97465,-84.02234
Patarrá,8,,9.86569,-84.02504
Pavas,8,,9.94994,-84.13659
Pavón,7,,8.38339,-83.09681
Pavones,2,,9.91567,-83.61979
Pedernal,8,,9.80992,-84.32641
Pejibaye,2,,9.81253,-83.70378
Penshurt,6,,9.77631,-82.90924
Peralta,2,,9.96679,-83.62243
"Pérez Zeledón",8,,9.35473,-83.63484
Perla,6,,10.17851,-83.3784
Philadelphia,6,,9.86667,-83.01667
Picagres,8,,9.9094,-84.37096
"Piedades Norte",1,,10.14731,-84.53733
"Piedades Sur",1,,10.09419,-84.57383
"Piedras Blancas",3,,10.27602,-85.4039
"Piedras Blancas National Park",7,,8.71075,-83.27227
"Piedras Negras",8,,9.89758,-84.31152
Pijije,3,,10.54482,-85.35158
Pilas,7,,9.09293,-83.42326
Pita,7,,9.73867,-84.6322
Pitahaya,7,,10.02162,-84.80891
Pital,1,,10.45056,-84.27406
"Playa Buenavista",3,,9.88017,-85.55824
"Playa Camaronal",3,,9.86165,-85.44045
"Playa Cocal del Peñón",7,,9.66471,-85.19053
"Playa Corozalito",3,,9.84827,-85.3786
"Playa Del Coco, Sardinal",3,,10.55101,-85.69979
"Playa Flamingo",3,,10.43095,-85.78649
"Playa Grande",3,,10.33316,-85.84511
"Playa Islita",3,,9.85286,-85.40092
"Playa Malpaís",7,,9.60102,-85.14276
"Playa Negra",3,,10.19515,-85.83061
"Playa Nosara",3,,9.97603,-85.68645
"Playa Ostional",3,,9.99763,-85.70452
"Playas del Coco",3,,10.54304,-85.69817
"Plaza de la Cultura",8,,9.93361,-84.07709
"Plaza de la Democracia",8,,9.93279,-84.07222
"Plaza del Santuario Nacional",2,,9.86424,-83.91383
"Plaza Juan Mora Fernández",8,,9.9332,-84.07761
"Plaza La Sabana",1,,10.09145,-84.47516
"Plaza Mayor",2,,9.86437,-83.92078
Poás,1,,10.08333,-84.23333
"Poas Volcano National Park",1,,10.20141,-84.24179
"Poco Sol",1,,10.35509,-84.65336
Pococí,6,,10.5,-83.63333
Pocora,6,,10.13395,-83.62216
Pocosol,1,,10.75635,-84.4727
Potrerillos,8,,9.89805,-84.36767
"Potrero Cerrado",2,,9.93186,-83.87286
"Potrero Grande",7,,9.10274,-83.14587
"Provincia de San José",8,,9.66667,-84
"Pueblo Nuevo",7,,8.53948,-83.03838
"Puente de Piedra",1,,10.03543,-84.33577
"Puerto Copal",3,,10.17224,-85.24718
"Puerto Cortés",7,,9.02256,-83.57671
"Puerto Coyote",3,,9.77597,-85.25947
"Puerto Culebra",3,,10.63941,-85.64006
"Puerto de Caldera",7,,9.91151,-84.72193
"Puerto de Moín",6,,10.00423,-83.07649
"Puerto Ecológico Caño Blanco",6,,10.28672,-83.3581
"Puerto González Víquez",7,,8.4337,-82.89824
"Puerto Jiménez",7,,8.53627,-83.30528
"Puerto Jiménez Airport",7,,8.53333,-83.3
"Puerto Limón",6,,9.99074,-83.03596
"Puerto Viejo",4,,10.46089,-84.00524
"Puerto Viejo de Sarapiqui",4,,10.45616,-84.00782
"Puerto Viejo de Talamanca",6,,9.65685,-82.75449
"Punta Abajo",3,,10.95032,-85.86377
"Punta Adela",7,,8.654,-83.29405
"Punta Agujas",7,,5.55714,-87.04809
"Punta Agujitas",7,,8.69548,-83.67389
"Punta Banco",7,,8.36637,-83.14509
"Punta Bejuco",3,,9.81681,-85.33491
"Punta Blanca",6,,10.00045,-83.02511
"Punta Buena",3,,10.59154,-85.67495
"Punta Cabuyal",3,,10.66099,-85.67553
"Punta Cahiones",3,,10.2,-85.85
"Punta Cahuita",6,,9.75,-82.81667
"Punta Chiles",7,,9.37343,-84.11768
"Punta Coyote",3,,9.76051,-85.27386
"Punta Descartes",3,,11.02356,-85.75308
"Punta Dominical",7,,9.22194,-83.84394
"Punta El Respingue",3,,10.85488,-85.85367
"Punta El Río",7,,9.8528,-84.90617
"Punta Esquinas",7,,8.68459,-83.3292
"Punta Filibusteros",3,,10.1,-85.8
"Punta Gallardo",7,,8.62787,-83.23648
"Punta Gavilanas",7,,10.09515,-85.09499
"Punta Gorda",3,,10.54342,-85.77824
"Punta Guachipelines",3,,10.48344,-85.79625
"Punta Guapinol",7,,9.59206,-84.62502
"Punta Guiones",3,,9.90842,-85.67184
"Punta Isidora",7,,8.72236,-83.45517
"Punta Islita",3,,9.84712,-85.40309
"Punta Islita Airport",3,,9.85611,-85.3708
"Punta Leona",7,,9.70816,-84.6686
"Punta Llorona",7,,8.586,-83.72616
"Punta Mala",7,,9.0469,-83.6422
"Punta Mary",7,,5.53275,-87.08902
"Punta Matapalo",3,,9.88686,-85.60633
"Punta Miga",3,,10.5555,-85.71275
"Punta Mona",6,,9.63008,-82.61866
"Punta Morales",7,,10.0649,-84.96771
"Punta Morros",3,,10.95,-85.71667
"Punta Murciélago",7,,9.75339,-84.95351
"Punta Palmas",7,,8.65171,-83.43335
"Punta Piedra Amarilla",7,,9.70526,-84.99529
"Punta Pirripli",6,,9.66018,-82.7498
"Punta Plata",3,,10.45,-85.8
"Punta Quepos",7,,9.39944,-84.17577
"Punta Rodríguez",7,,5.51607,-87.09245
"Punta Sabana",3,,10.40978,-85.82584
"Punta San Francisco",3,,10.29494,-85.85246
"Punta San Pedrillo",7,,8.62497,-83.73542
"Punta Santa Elena",3,,10.88967,-85.9494
"Punta Serrucho",7,,9.36999,-84.12335
"Punta Sombrero",7,,8.43132,-83.27373
"Punta Tambor",7,,9.7272,-84.95837
"Punta Tigre",7,,8.56706,-83.32541
"Punta Tigrito",7,,8.48333,-83.28333
"Punta Turrialba",7,,5.50129,-87.07889
"Punta Uvita",7,,9.14754,-83.76086
"Punta Varas",3,,10.80352,-85.76291
"Punta Violín",7,,8.79403,-83.6503
"Punta Voladera",7,,8.6222,-83.18165
"Punta Vuelta del Sur",3,,9.85956,-85.45338
"Punta Zacate",3,,11.04896,-85.72748
"Punta Zancudo",7,,8.54776,-83.15093
"Punta Zapotal",3,,10.51624,-85.81111
Puntarenas,7,,9.98102,-84.81342
"Puntarenas Chacarita Airport",7,,9.98141,-84.77274
"Puntarenas Province",7,,9.97794,-84.83068
Puntarenitas,3,,10.08407,-85.20007
Puriscal,8,,9.7267,-84.40396
Purral,8,,9.95689,-84.03209
"Quebrada Palo",1,,10.3441,-84.40292
Quebradilla,2,,9.84917,-84.00117
Quepos,7,,9.45963,-84.13759
"Quepos La Managua Airport",7,,9.44316,-84.1298
Quesada,1,,10.3266,-84.432
Queverí,2,,9.75257,-83.84029
Quitirrisí,8,,9.86954,-84.23683
"Rincón de la Vieja National Park",3,,10.74304,-85.37561
"Rincón de la Vieja Volcano",1,,10.82683,-85.32658
"Rincón de Sabanilla",4,,9.98379,-84.10478
"Rio Celeste",3,,10.67971,-85.02079
"Río Cuarto",1,,10.40855,-84.20941
"Rio Frio / Progreso Airport",4,,10.3274,-83.8876
"Río Jiménez",6,,10.26131,-83.56236
"Río Ora",3,,9.94551,-85.33451
"Río Segundo",1,,10.00379,-84.18721
Rivas,8,,9.41904,-83.65977
"Roca Chancha Pelona",7,,8.45,-83.66667
Rodeo,8,,9.91916,-84.26888
Rosario,8,,9.80046,-84.0856
Roxana,6,,10.26712,-83.7511
"Roxana Farms Airport",6,,10.30939,-83.75831
Sabalito,7,,8.81655,-82.90146
"Sabana Grande",3,,10.18586,-85.48487
Sabanilla,8,,9.94425,-84.03186
Sacramento,4,,10.10231,-84.11919
Salinas,3,,10.34021,-85.84558
Salitral,8,,9.91163,-84.17835
Salitrillos,8,,9.84464,-84.08279
Sámara,3,,9.88147,-85.52809
"San Alberto Airport",6,,10.14869,-83.4909
"San Alberto Nuevo",6,,10.15575,-83.47373
"San Andrés",8,,9.7223,-84.07816
"San Antonio",8,,9.86361,-84.30154
"San Antonio de Escazú",8,,9.9054,-84.1303
"San Carlos",1,,10.58654,-84.40198
"San Cristóbal",8,,9.75441,-83.99853
"San Diego",2,,9.90028,-84.0017
"San Felipe",8,,9.90444,-84.1062
"San Francisco",8,,9.94172,-84.07278
"San Francisco de Dos Ríos",8,,9.90815,-84.05919
"San Gabriel",8,,9.78612,-84.11005
"San Ignacio",8,,9.79932,-84.16321
"San Isidro",8,,9.97255,-83.99224
"San Isidro de El General",8,,9.32149,-83.71947
"San Isidro de El General Airport",8,,9.34901,-83.71232
"San Jerónimo",7,,10.06344,-84.65617
"San Joaquín",4,,10.00638,-84.15559
"San Joquín de Flores",4,,10.00351,-84.1524
"San José",1,,10.95192,-85.13572
"San José Cabécar",6,,9.50977,-83.14143
"San José de Pinilla",3,,10.24793,-85.81084
"San José Sur",1,,9.9994,-84.3929
"San Josecito",8,,9.88971,-84.1043
"San Juan",8,,9.96341,-84.076
"San Juan Chicoá",2,,9.94748,-83.86279
"San Juan de Dios",8,,9.87812,-84.08438
"San Juan Norte",2,,9.79764,-84.06961
"San Juan Sur",2,,9.78932,-84.06756
"San Marcos",8,,9.67235,-84.00484
"San Mateo",1,,9.96694,-84.53126
"San Miguel",8,,9.8393,-84.05171
"San Pablo",8,,9.68465,-84.04645
"San Pedro",4,,10.04349,-84.13157
"San Rafael",8,,9.82593,-84.2783
"San Rafael Abajo",8,,9.89519,-84.08285
"San Rafael Arriba",8,,9.87588,-84.07346
"San Rafael de Guatuso",1,,10.67153,-84.82141
"San Ramón",1,,10.0873,-84.4699
"San Roque",1,,10.12287,-84.28762
"San Sebastián",8,,9.91064,-84.08231
"San Vicente",8,,9.96357,-84.04856
"San Vicente de Moravia",8,,9.96164,-84.0488
"San Vito",7,,8.86533,-82.95004
"San Vito de Java Airport",7,,8.82611,-82.9589
"Santa Ana",8,,9.9326,-84.18255
"Santa Bárbara",4,,10.08333,-84.15
"Santa Cecilia",3,,11.04891,-85.37197
"Santa Clara de Guapiles Airport",6,,10.29107,-83.71324
"Santa Clara Plain",6,,10.25,-83.75
"Santa Cruz",3,,10.26053,-85.5851
"Santa Eulalia",1,,10.0149,-84.37532
"Santa Lucía",4,,10.02369,-84.11295
"Santa María",8,,9.58743,-83.96991
"Santa Rosa",2,,9.94176,-83.71272
"Santa Rosa National Park",3,,10.83793,-85.70511
"Santa Teresa",7,,9.64724,-85.17104
"Santa Teresita",6,,10.8937,-83.66605
Santiago,8,,9.82016,-84.30625
"Santo Domingo",4,,9.98123,-84.08984
"Santo Tomás",4,,9.97948,-84.0763
Sarapiquí,1,,10.26546,-84.18783
Sarchí,1,,10.0897,-84.34752
Sardinal,3,,10.51674,-85.64748
Sierpe,7,,8.75005,-83.53772
Siquirres,6,,10.15892,-83.45461
"Sitio Cascante",3,,10.31726,-85.14103
"Sitio Coyolar",3,,10.2496,-85.23915
"Sitio Número Dos",1,,9.89613,-84.57806
"Sitio Número Tres",1,,9.89554,-84.58841
"Sitio Número Uno",1,,9.89928,-84.5705
"Sitio Puerto Alto",7,,10.00948,-84.83124
"Sitio Tronconal",7,,10.03521,-84.85608
Sixaola,6,,9.50371,-82.612
Tablones,1,,10.09503,-84.56385
Tacares,1,,10.02765,-84.3094
Talamanca,6,,9.46115,-83.09844
"Talamanca Caribe Biological Corridor",6,,9.65003,-82.82755
"Talamanca Range- La Amistad Reserves",6,,9.4069,-82.9386
Tamarindo,3,,10.29913,-85.84107
"Tamarindo Airport",3,,10.31495,-85.81541
Tambor,7,,9.71615,-85.02999
"Tambor Airport",7,,9.73852,-85.0138
Tapantí,2,,9.7688,-83.8001
"Tapanti National Park",2,,9.75877,-83.78379
Tarbaca,8,,9.82283,-84.11788
Tarrazú,8,,9.65965,-84.02138
Tejar,8,,9.74301,-84.23219
Tejona,3,,10.50043,-84.96766
Telire,6,,9.43925,-83.15957
"Tenorio Volcano National Park",3,,10.67306,-85.015
"Térraba River",7,,8.95912,-83.62706
Tibás,8,,9.96667,-84.08333
Tigra,7,,9.93781,-85.1543
Tigre,7,,8.68223,-83.00575
Tilaran,3,,10.46701,-84.96775
"Tobías Bolaños International Airport",8,,9.95705,-84.1398
Tobosi,2,,9.82182,-83.99422
Tornos,1,,10.79018,-84.70339
Tortuguero,6,,10.54143,-83.50211
"Tortuguero Airport",6,,10.569,-83.5148
"Tortuguero Conservation Area",6,,10.21452,-83.77285
"Tortuguero National Park",6,,10.54143,-83.50211
"Tres Equis",2,,9.95475,-83.57374
"Tres Ríos",2,,9.90692,-83.98789
Tronadora,3,,10.50157,-84.92419
Tucurrique,2,,9.85336,-83.72273
Tuis,2,,9.85278,-83.56633
Turrialba,2,,9.88723,-83.68608
"Turrialba Volcano National Park",2,,10.01754,-83.77075
Turrubares,8,,9.73729,-84.5233
Turrúcares,1,,9.94405,-84.32526
Uatsi,6,,9.62734,-82.87024
Ujarrás,2,,9.8274,-83.83186
Unión,3,,10.48974,-84.83608
"Unión de Coto",7,,8.60315,-83.04965
Upala,1,,10.89908,-85.01366
"Upala Airport",1,,10.8922,-85.0162
Uruca,8,,9.95667,-84.12293
"Vaca Blanca",1,,10.44859,-84.40286
"Valle Coto Brus",7,,8.96667,-83.11667
"Valle de Coto Colorado",7,,8.58333,-83
"Valle del Diquis",7,,8.88333,-83.5
"Valle La Estrella",6,,9.71506,-83.16516
"Vara Blanca",4,,10.17227,-84.15803
"Vázquez de Coronado",8,,10.06,-84
"Veintisiete de Abril",3,,10.24532,-85.70946
Venado,1,,10.56604,-84.76453
Venecia,1,,10.35373,-84.2739
Victoria,6,,9.92825,-83.14714
Vieja,1,,10.3298,-84.4882
Vigía,3,,10.10295,-85.28563
"Viking Rock",7,,5.54995,-87.06409
Villafranca,6,,10.28717,-83.60718
"Viradores Norte",3,,10.66667,-85.71667
Volcán,7,,9.24848,-83.45082
"Volcán Barva",4,,10.13389,-84.10532
"Volcán Miravalles",3,,10.74711,-85.15134
"Volcán Orosí",3,,10.98067,-85.47376
"Volcán Platanar",1,,10.29933,-84.36363
"Volcán Poás",1,,10.19701,-84.22896
"Volcán Porvenir",1,,10.26933,-84.36052
"Volcán Santa María",1,,10.81048,-85.31714
"Volcán Turrialba",2,,10.02329,-83.76397
Volio,1,,10.15092,-84.45258
"Vuelta de Jorco",8,,9.77423,-84.13767
Vueltas,7,,8.9668,-83.17129
"Ycatica Airport",6,,10.33895,-83.66891
Zapote,8,,9.92055,-84.05984
Zaragoza,1,,10.03752,-84.4438
Zarcero,1,,10.1896,-84.37965
